[{"nombre":"Ancón","comisarias":[{"nombre":"Ancón","direccion":"AV. JOSE CARLOS MARIATEGUI # SN","telefono":"15520087","latitud":"-11.7761436","longitud":"-77.1713121"}]},{"nombre":"Ate","comisarias":[{"nombre":"CPNP VITARTE","direccion":"CARR. CARRETERA CENTRAL # SN Km.7","telefono":"013518499","latitud":"-12.026009","longitud":"-76.919481"},{"nombre":"CPNP SANTA ROSA","direccion":"PJ. GUARDIA CIVIL # SN","telefono":"013560084","latitud":"-12.0914875","longitud":"-77.0003507"},{"nombre":"CPNP HUAYCAN","direccion":"AV. JOSE CARLOS MARIATEGUI # SN","telefono":"013715232","latitud":"-12.011888","longitud":"-76.827408"},{"nombre":"CPNP SALAMANCA","direccion":"JR. AYMARAS # 265","telefono":"014351837","latitud":"-12.0915226","longitud":"-76.9996637"}]},{"nombre":"Barranco","comisarias":[{"nombre":"CPNP BARRANCO","direccion":"Av. San Martin ","telefono":"012471160","latitud":"-12.1462895","longitud":"-77.0231791"}]},{"nombre":"Breña","comisarias":[{"nombre":"CPNP BREÑA","direccion":"JR. GENERAL VARELA # 1978, Breña 15083","telefono":"014311425, 014314455"}]},{"nombre":"Carabayllo","comisarias":[{"nombre":"CPNP CARABAYLLO","direccion":"JR. MIGUEL GRAU # 285 Mz.A Lt.4","telefono":"012250202","latitud":"-11.8640931","longitud":"-77.0355019"},{"nombre":"CPNP EL PROGRESO","direccion":"AV. AV.TUPAC AMARU # 3300 Km.20","telefono":"01547247","latitud":"-11.8640928","longitud":"-77.0355448"},{"nombre":"CPNP SANTA ISABEL","direccion":"AV. MARIA PARADO DE BELLIDO 216","telefono":"015430686","latitud":"-11.9018997","longitud":"-77.0344282"}]},{"nombre":"Chaclacayo","comisarias":[{"nombre":"CPNP CHACLACAYO","direccion":"AV. EL ROSARIO # 591","telefono":"013581299","latitud":"-12.0461437","longitud":"-76.9563378"}]},{"nombre":"Chorrillos","comisarias":[{"nombre":"CPNP LADERAS DE VILLA","direccion":"Calle 10 Urb. Laderas de Villa","telefono":"012926515","latitud":"-12.1907368","longitud":"-76.9598078"},{"nombre":"CPNP CHORRILLOS VILLA","direccion":"Prolongación Huaylas Cdr. 1","telefono":"012545486","latitud":"-12.1811478","longitud":"-77.0193993"},{"nombre":"CPNP CHORRILLOS","direccion":"AV. DEFENSORES DEL MORRO EX HUAYLAS # 626","telefono":"014670184","latitud":"-12.18115","longitud":"-77.0192276"},{"nombre":"CPNP CHORRILLOS MATEO PUMACAHUA","direccion":"AV. SANTA ROSA DE LIMA # 2","telefono":"012582410","latitud":"-12.1811489","longitud":"-77.0193134"},{"nombre":"CPNP SAN GENARO","direccion":"Av. Principal con Calle. 8","telefono":"12547572","latitud":"-12.194102","longitud":"-77.020379"}]},{"nombre":"Cieneguilla","comisarias":[{"nombre":"CPNP CIENEGUILLA","direccion":"AV. NUEVA TOLEDO # 104","telefono":"014798626","latitud":"-12.116571","longitud":"-76.8593153"}]},{"nombre":"Comas","comisarias":[{"nombre":"CPNP DE LA FAMILIA COMAS COLLIQUE","direccion":"AV. FRANCISCO DE ZELA # SN","telefono":"015580531","latitud":"-11.9129203","longitud":"-77.0121324"},{"nombre":"CPNP SANTA LUZMILA","direccion":"AV. GERARDO UNGER # 6500","telefono":"015361636","latitud":"-11.9477239","longitud":"-77.0776543"},{"nombre":"CPNP TUPAC AMARU","direccion":"AV. TUPAC AMARU # 1121 Km.11","telefono":"015367074","latitud":"-11.9553738","longitud":"-77.0699196"},{"nombre":"CPNP LA PASCANA","direccion":"JR. JOSE C. MARIATEGUI Y PEDRO PAULET # SN","telefono":"015414684","latitud":"-11.901897","longitud":"-77.0499691"},{"nombre":"CPNP COMAS COLLIQUE","direccion":"AV. REVOLUCION CDRA 25 # SN","telefono":"015582652","latitud":"-11.9018991","longitud":"-77.0497975"},{"nombre":"CPNP UNIVERSITARIA","direccion":"AV. UNIVERSITARIA CDRA 64 # SN Mz.E3 Lt.12","telefono":"015368422","latitud":"-11.947725","longitud":"-77.0775685"}]}]